{"wwtp" : [
{
  "name":"Cloverdale Waste Water Treatment Facility",
  "address": "700 Asti Rd",
  "city": "Cloverdale",
  "state": "CA",
  "zip" : "95425",
  "lat" : "38.764079",
  "lon" : "-122.983245",
  "supplier": "Cloverdale, City of",
  "descript": "Evaporation/percolation ponds at WWTF",
  "outfall" : "Cloverdale Waste Water Treatment Facility",
  "disposal": "Percolation ponds",
  "treats_ww_gen_area": "N",
  "sic" : 4952,
  "level": "Secondary, Disinfected -23",
  "total": 567.74,
  "discharge": 567.74,
  "recycled_in_area": 0,
  "recycled_out_area" : 0
},
{
  "name":"City of San Leandro",
  "address": "3000 Davis ST",
  "city": "San Leandro",
  "state": "CA",
  "zip" : "94577",
  "lat" : "37.714649",
  "lon" : "-122.192812",
  "supplier": "East Bay Municipal Utility District",
  "descript": "none",
  "outfall" : "EBDA Outfall",
  "disposal": "Bay or estuary outfall",
  "treats_ww_gen_area": "Y",
  "sic" : 4952,
  "level": "Secondary, Disinfected -23",
  "total": 5045.251625,
  "discharge": 4456.025158,
  "recycled_in_area": 392.8176448,
  "recycled_out_area" : 0
},
{
  "name":"Cal American Water Wastewater",
  "address": "45 Skyway Blvd",
  "city": "Salinas",
  "state": "CA",
  "zip" : "93905",
  "lat" : "36.3671241",
  "lon" : "-121.615871",
  "supplier": "California American Water Company- Monterey District",
  "descript": "golf courses",
  "outfall" : "Ponds",
  "disposal": "Percolation Ponds",
  "treats_ww_gen_area": "N",
  "sic" : 4952,
  "level": "Secondary, Disinfected -23",
  "total": 60,
  "discharge": 60,
  "recycled_in_area": 0,
  "recycled_out_area" : 0
},
{
  "name":"SBWRP",
  "address": "2411 Dairy Mart Rd",
  "city": "San Diego",
  "state": "CA",
  "zip" : "92154",
  "lat" : "32.544848",
  "lon" : "-117.068324",
  "supplier": "California American Water Company - San Diego District",
  "descript": "ocean outfall",
  "disposal": "ocean outfall",
  "outfall" : "Pacific Ocean",
  "treats_ww_gen_area": "none",
  "sic" : 4952,
  "level": "Secondary, Undisinfected",
  "total": null,
  "discharge": 105,
  "recycled_in_area": null,
  "recycled_out_area" : null
},
{
  "name":"Los Angeles-Glendale WRP",
  "address": "2411 Dairy Mart Rd",
  "city": "San Diego",
  "state": "CA",
  "zip" : "92154",
  "lat" : "34.139500",
  "lon" : "-118.273940",
  "supplier": "Los Angeles City Department of Water and Power",
  "descript": "Outfall to LA River",
  "outfall" : "Los Angeles River,",
  "disposal": "River or Creek Outfall",
  "treats_ww_gen_area": "Y",
  "sic" : 4952,
  "level": "Tertiary",
  "total": 16000,
  "discharge": 11100,
  "recycled_in_area": 3200,
  "recycled_out_area" : 1700

}

]}
