{"wwtp" : [
{
  "name":"Cloverdale Waste Water Treatment Facility",
  "address": "700 Asti Rd",
  "city": "Cloverdale",
  "state": "CA",
  "zip" : "95425",
  "lat" : "38.764079",
  "lon" : "-122.983245",
  "supplier": "Cloverdale, City of",
  "descript": "Evaporation/percolation ponds at WWTF",
  "outfall" : "Cloverdale Waste Water Treatment Facility",
  "disposal": "Percolation ponds",
  "treats_ww_gen_area": "N",
  "sic" : 4952,
  "level": "Secondary, Disinfected -23",
  "total": 567.74,
  "discharge": 567.74,
  "recycled_in_area": 0,
  "recycled_out_area" : 0
},
{
  "name":"City of San Leandro",
  "address": "3000 Davis ST",
  "city": "San Leandro",
  "state": "CA",
  "zip" : "94577",
  "lat" : "37.714649",
  "lon" : "-122.192812",
  "supplier": "East Bay Municipal Utility District",
  "descript": "none",
  "outfall" : "EBDA Outfall",
  "disposal": "Bay or estuary outfall",
  "treats_ww_gen_area": "Y",
  "sic" : 4952,
  "level": "Secondary, Disinfected -23",
  "total": 5045.251625,
  "discharge": 4456.025158,
  "recycled_in_area": 392.8176448,
  "recycled_out_area" : 0
},
{
  "name":"Cal American Water Wastewater",
  "address": "45 Skyway Blvd",
  "city": "Salinas",
  "state": "CA",
  "zip" : "93905",
  "lat" : "36.3671241",
  "lon" : "-121.615871",
  "supplier": "California American Water Company- Monterey District",
  "descript": "golf courses",
  "outfall" : "Ponds",
  "disposal": "Percolation Ponds",
  "treats_ww_gen_area": "N",
  "sic" : 4952,
  "level": "Secondary, Disinfected -23",
  "total": 60,
  "discharge": 60,
  "recycled_in_area": 0,
  "recycled_out_area" : 0
},
{
  "name":"SBWRP",
  "address": "2411 Dairy Mart Rd",
  "city": "San Diego",
  "state": "CA",
  "zip" : "92154",
  "lat" : "32.544848",
  "lon" : "-117.068324",
  "supplier": "California American Water Company - San Diego District",
  "descript": "ocean outfall",
  "disposal": "ocean outfall",
  "outfall" : "Pacific Ocean",
  "treats_ww_gen_area": "none",
  "sic" : 4952,
  "level": "Secondary, Undisinfected",
  "total": 0,
  "discharge": 105,
  "recycled_in_area": 0,
  "recycled_out_area" : 0
},
{
  "name":"Los Angeles-Glendale WRP",
  "address": "4600 Colorado Blvd",
  "city": "Los Angles",
  "state": "CA",
  "zip" : "90039",
  "lat" : "34.139500",
  "lon" : "-118.273940",
  "supplier": "Los Angeles City Department of Water and Power",
  "descript": "Outfall to LA River",
  "outfall" : "Los Angeles River,",
  "disposal": "River or Creek Outfall",
  "treats_ww_gen_area": "Y",
  "sic" : 4952,
  "level": "Tertiary",
  "total": 16000,
  "discharge": 11100,
  "recycled_in_area": 3200,
  "recycled_out_area" : 1700
},
{
  "name":"Regional Water Quality Control Plant",
  "address": "2501 Embarcadero Way",
  "city": "Palo Alto",
  "state": "CA",
  "zip" : "94303",
  "lat" : "37.452114",
  "lon" : "-122.110879",
  "supplier": "Palo Alto City of",
  "descript": "none",
  "outfall" : "Bay via Emily Renzel Marsh",
  "disposal": "Wetlands",
  "treats_ww_gen_area": "Y",
  "sic" : 4952,
  "level": "Tertiary",
  "total": 629,
  "discharge": 629,
  "recycled_in_area": 0 ,
  "recycled_out_area" : 0
},
{
  "name":"Sunnyvale WPCP",
  "address": "1444",
  "city": "Sunnyvale",
  "state": "CA",
  "zip" : "94089",
  "lat" : "37.418766",
  "lon" : "-122.016097",
  "supplier": "Sunnyvale City of",
  "descript": "Discharge via Moffett Channel and Guadalupe Slough",
  "outfall" : "Moffett Channel",
  "disposal": "Bay or estuary outfall",
  "treats_ww_gen_area": "N",
  "sic" : 4952,
  "level": "Secondary, Disinfected -23",
  "total": 13476,
  "discharge": 11300,
  "recycled_in_area": 7981,
  "recycled_out_area" : 0
},
{
  "name":"Silicon Valley Clean Water Wastewater Treatment",
  "address": "1400 Radio Rd",
  "city": "Palo Alto",
  "state": "CA",
  "zip" : "94065",
  "lat" : "37.548048",
  "lon" : "-122.229149",
  "supplier": "Redwood City",
  "descript": "Deep Channel",
  "outfall" : "Lower San Francisco Bay",
  "disposal": "Bay or estuary outfall",
  "treats_ww_gen_area": "Y",
  "sic" : 4952,
  "level": "Tertiary",
  "total": 14622,
  "discharge": 13844,
  "recycled_in_area": 778,
  "recycled_out_area" : 0
}

]}
